,all_reports,area,area_name,country_name,latitude,longitude,upper
1.0,2,AL,St Albans,,51.7755,-0.283795,ST ALBANS
,1,AUSTRALIA,,,,,
2.0,2,B,Birmingham,,52.4651,-1.88864,BIRMINGHAM
5.0,1,BD,Bradford,,53.8288,-1.82887,BRADFORD
9.0,4,BN,Brighton,,50.8289,-0.11955,BRIGHTON
10.0,3,BR,Bromley,,51.3944,0.0424589,BROMLEY
11.0,3,BS,Bristol,,51.4489,-2.62239,BRISTOL
13.0,1,CA,Carlisle,,54.7318,-3.10828,CARLISLE
14.0,2,CB,Cambridge,,52.2067,0.189054,CAMBRIDGE
15.0,5,CF,Cardiff,,51.5343,-3.29374,CARDIFF
16.0,3,CH,Chester,,53.2905,-3.02015,CHESTER
17.0,4,CM,Chelmsford,,51.7583,0.403764,CHELMSFORD
18.0,1,CO,Colchester,,51.9029,0.924492,COLCHESTER
19.0,10,CR,Croydon,,51.356,-0.103301,CROYDON
20.0,6,CT,Canterbury,,51.2555,1.2316,CANTERBURY
21.0,3,CV,Coventry,,52.3671,-1.50128,COVENTRY
23.0,2,DA,Dartford,,51.4422,0.220719,DARTFORD
27.0,1,DH,Durham,,54.825,-1.61387,DURHAM
29.0,1,DN,Doncaster,,53.5411,-0.720631,DONCASTER
30.0,1,DT,Dorchester,,50.7546,-2.48288,DORCHESTER
31.0,1,DY,Dudley,,52.4536,-2.17685,DUDLEY
32.0,20,E,East London,,51.5434,-0.0158165,EAST LONDON
33.0,1,EC,Central London,,51.5188,-0.0967554,CENTRAL LONDON
35.0,1,EN,Enfield,,51.6817,-0.08640489999999999,ENFIELD
36.0,1,EX,Exeter,,50.8269,-3.65629,EXETER
37.0,1,FK,Falkirk and Stirling,,56.0772,-3.85937,FALKIRK AND STIRLING
,1,FRANCE,,,,,
39.0,3,G,Glasgow,,55.8688,-4.26823,GLASGOW
41.0,2,GU,Guildford,,51.2314,-0.717471,GUILDFORD
42.0,1,HA,Harrow,,51.5853,-0.336045,HARROW
44.0,1,HG,Harrogate,,54.0371,-1.54611,HARROGATE
50.0,2,IG,Ilford,,51.584,0.07184310000000001,ILFORD
51.0,1,IP,Ipswich,,52.195,1.0831,IPSWICH
54.0,1,KT,Kingston upon Thames,,51.36,-0.34317800000000004,KINGSTON UPON THAMES
57.0,2,L,Liverpool,,53.4158,-2.96295,LIVERPOOL
60.0,7,LE,Leicester,,52.6442,-1.14855,LEICESTER
61.0,1,LL,Llandudno,,53.1333,-3.71608,LLANDUDNO
63.0,1,LS,Leeds,,53.8227,-1.55309,LEEDS
64.0,1,LU,Luton,,51.8965,-0.509605,LUTON
65.0,6,M,Manchester,,53.4787,-2.27172,MANCHESTER
66.0,2,ME,Rochester,,51.3338,0.584378,ROCHESTER
67.0,4,MK,Milton Keynes,,52.0623,-0.66594,MILTON KEYNES
69.0,20,N,North London,,51.5853,-0.114104,NORTH LONDON
71.0,4,NG,Nottingham,,53.0055,-1.07239,NOTTINGHAM
72.0,1,NN,Northampton,,52.2888,-0.841144,NORTHAMPTON
73.0,1,NP,Newport,,51.6729,-3.01599,NEWPORT
74.0,1,NR,Norwich,,52.6461,1.34034,NORWICH
75.0,6,NW,North West London,,51.5548,-0.196886,NORTH WEST LONDON
77.0,16,OX,Oxford,,51.7957,-1.2906,OXFORD
79.0,3,PE,Peterborough,,52.6268,-0.0449613,PETERBOROUGH
83.0,1,PR,Preston,,53.7224,-2.75192,PRESTON
84.0,4,RG,Reading,,51.4046,-1.02767,READING
85.0,7,RH,Redhill,,51.1101,-0.208322,REDHILL
86.0,7,RM,Romford,,51.5469,0.217288,ROMFORD
87.0,2,S,Sheffield,,53.394,-1.41222,SHEFFIELD
89.0,8,SE,South East London,,51.4669,-0.0358059,SOUTH EAST LONDON
91.0,1,SK,Stockport,,53.3714,-2.0983,STOCKPORT
92.0,6,SL,Slough,,51.5153,-0.6421819999999999,SLOUGH
93.0,2,SM,Sutton,,51.3628,-0.184529,SUTTON
94.0,1,SN,Swindon,,51.5058,-1.89419,SWINDON
95.0,1,SO,Southampton,,50.9296,-1.39194,SOUTHAMPTON
98.0,1,SS,Southend-on-Sea,,51.5622,0.5999,SOUTHEND-ON-SEA
99.0,1,ST,Stoke-on-Trent,,52.9778,-2.14641,STOKE-ON-TRENT
100.0,14,SW,South West London,,51.4641,-0.167506,SOUTH WEST LONDON
101.0,1,SY,Shrewsbury,,52.6644,-3.04732,SHREWSBURY
102.0,1,TA,Taunton,,51.0557,-3.06706,TAUNTON
104.0,1,TF,Telford,,52.7131,-2.46186,TELFORD
105.0,2,TN,Tonbridge,,51.0853,0.441616,TONBRIDGE
109.0,2,TW,Twickenham,,51.4486,-0.390043,TWICKENHAM
111.0,5,W,West London,,51.5115,-0.19277,WEST LONDON
114.0,2,WD,Watford,,51.6586,-0.393765,WATFORD
115.0,2,WF,Wakefield,,53.6855,-1.49651,WAKEFIELD
117.0,1,WR,Worcester,,52.163,-2.16848,WORCESTER
119.0,2,WV,Wolverhampton,,52.5808,-2.16227,WOLVERHAMPTON
,1,XXAL,,,,,
120.0,1,YO,York,,54.0448,-0.887333,YORK
13.0,1,AUSTRALIA,Australia,AUSTRALIA,-25.274398,133.775136,
28.0,2,BRAZIL,Brazil,BRAZIL,-14.235004,-51.92528,
35.0,2,CANADA,Canada,CANADA,56.130366,-106.34677099999999,
45.0,1,CHINA,China,CHINA,35.86166,104.195397,
94.0,1,CROATIA,Croatia,CROATIA,45.1,15.2,
51.0,1,CYPRUS,Cyprus,CYPRUS,35.126413,33.429859,
71.0,125,FRANCE,France,FRANCE,46.227638,2.213749,
53.0,13,GERMANY,Germany,GERMANY,51.165690999999995,10.451526,
77.0,1,GHANA,Ghana,GHANA,7.9465270000000015,-1.0231940000000002,
91.0,1,HONG KONG,Hong Kong,HONG KONG,22.396428,114.10949699999999,
106.0,3,ITALY,Italy,ITALY,41.87194,12.56738,
123.0,1,LEBANON,Lebanon,LEBANON,33.854721000000005,35.862285,
129.0,1,LITHUANIA,Lithuania,LITHUANIA,55.169438,23.881275,
133.0,1,MOROCCO,Morocco,MOROCCO,31.791702,-7.09262,
161.0,1,NETHERLANDS,Netherlands,NETHERLANDS,52.132633,5.291266,
166.0,2,NEW ZEALAND,New Zealand,NEW ZEALAND,-40.900557,174.88597099999996,
174.0,5,POLAND,Poland,POLAND,51.919438,19.145135999999997,
179.0,1,PORTUGAL,Portugal,PORTUGAL,39.399871999999995,-8.224454,
186.0,1,RUSSIA,Russia,RUSSIA,61.52401,105.31875600000001,
193.0,24,SINGAPORE,Singapore,SINGAPORE,1.352083,103.819836,
64.0,6,SPAIN,Spain,SPAIN,40.463667,-3.7492199999999998,
40.0,1,SWITZERLAND,Switzerland,SWITZERLAND,46.818188,8.227511999999999,
1.0,1,UNITED ARAB EMIRATES,United Arab Emirates,UNITED ARAB EMIRATES,23.424076,53.847818000000004,
